{"type":"FeatureCollection","features":[{"type":"Feature","geometry":{"type":"Point","coordinates":[-115.183667,36.172917]},"properties":{"id":275,"numid":4293,"stationid":4294,"name":"Meadows DB","description":"Water Level Bubbler","in_service":1,"interval_data":"0.18","interval_time":43200}},{"type":"Feature","geometry":{"type":"Point","coordinates":[-114.073333,36.825556]},"properties":{"id":1071,"numid":2592,"stationid":2594,"name":"Town Wash DB Radar","description":"Water Level Float","in_service":1,"interval_data":"-0.12","interval_time":43200}},{"type":"Feature","geometry":{"type":"Point","coordinates":[-115.354658,36.152586]},"properties":{"id":294,"numid":4343,"stationid":4344,"name":"Red Rock DB Basin","description":"Water Level Bubbler","in_service":1,"interval_data":"5.11","interval_time":43200}},{"type":"Feature","geometry":{"type":"Point","coordinates":[-115.270611,36.090111]},"properties":{"id":296,"numid":4348,"stationid":4349,"name":"Upper Flamingo DB","description":"Water Level Bubbler","in_service":1,"interval_data":"3.36","interval_time":43200}},{"type":"Feature","geometry":{"type":"Point","coordinates":[-115.044542,36.159564]},"properties":{"id":225,"numid":4173,"stationid":4174,"name":"Sloan Channel at Charleston (USGS) Bubbler","in_service":1,"interval_data":"0.24","interval_time":43200}},{"type":"Feature","geometry":{"type":"Point","coordinates":[-115.12925,35.9685]},"properties":{"id":456,"numid":4718,"stationid":4719,"name":"Pittman East DB","description":"Water Level Bubbler","in_service":1,"interval_data":"1.35","interval_time":43200}},{"type":"Feature","geometry":{"type":"Point","coordinates":[-115.15975,36.293556]},"properties":{"id":1075,"numid":4568,"stationid":4569,"name":"Beltway Channel W. of Revere","in_service":1,"interval_data":"0.29","interval_time":43200}},{"type":"Feature","geometry":{"type":"Point","coordinates":[-115.116528,36.015972]},"properties":{"id":454,"numid":4713,"stationid":4714,"name":"Pittman Pecos","description":"Water Level Float","in_service":1,"interval_data":"-0.08","interval_time":43200}},{"type":"Feature","geometry":{"type":"Point","coordinates":[-115.214556,35.981917]},"properties":{"id":1085,"numid":4668,"stationid":4669,"name":"Central Duck Creek DB","description":"Water Level Bubbler","in_service":1,"interval_data":"M","interval_time":43200}},{"type":"Feature","geometry":{"type":"Point","coordinates":[-115.195556,36.096111]},"properties":{"id":387,"numid":4478,"stationid":4479,"name":"Tropicana North Branch DB","description":"Water Level Bubbler","in_service":1,"interval_data":"0.52","interval_time":43200}},{"type":"Feature","geometry":{"type":"Point","coordinates":[-115.211944,36.325472]},"properties":{"id":177,"numid":4023,"stationid":4024,"name":"Upper Las Vegas Wash DB","description":"Water Level Bubbler","in_service":1,"interval_data":"0.00","interval_time":43200}},{"type":"Feature","geometry":{"type":"Point","coordinates":[-114.953472,36.802333]},"properties":{"id":1108,"numid":3228,"stationid":3229,"name":"Coyote Springs DB","description":"Water Level Bubbler","in_service":1,"interval_data":"0.00","interval_time":43200}},{"type":"Feature","geometry":{"type":"Point","coordinates":[-115.212222,36.046667]},"properties":{"id":382,"numid":4458,"stationid":4459,"name":"Lower Blue Diamond DB","description":"Water Level Bubbler","in_service":1,"interval_data":"0.00","interval_time":43200}},{"type":"Feature","geometry":{"type":"Point","coordinates":[-115.338861,36.097194]},"properties":{"id":360,"numid":4403,"stationid":4404,"name":"F-1 Debris Basin","description":"Water Level Bubbler","in_service":1,"interval_data":"2.45","interval_time":43200}},{"type":"Feature","geometry":{"type":"Point","coordinates":[-115.326083,36.225833]},"properties":{"id":391,"numid":4503,"stationid":4504,"name":"Beltway Channel at Cheyenne","description":"Water Level Float","in_service":1,"interval_data":"-0.82","interval_time":43200}},{"type":"Feature","geometry":{"type":"Point","coordinates":[-115.048989,36.139789]},"properties":{"id":1023,"numid":4598,"stationid":4599,"name":"Las Vegas Wash at The Club at Sunrise Radar (USGS)","description":"Radar WL site. The Club was formerly named Desert Rose Golf Course. Located at the confluence of the Las Vegas and Flamingo Washes.","in_service":1,"interval_data":"1.30","interval_time":43200}},{"type":"Feature","geometry":{"type":"Point","coordinates":[-115.331578,36.311292]},"properties":{"id":1259,"numid":4578,"stationid":4579,"name":"Skye Canyon 1 DB","description":"Water Level Bubbler","in_service":1,"interval_data":"-3.00","interval_time":43200}},{"type":"Feature","geometry":{"type":"Point","coordinates":[-114.906111,36.024444]},"properties":{"id":489,"numid":4798,"stationid":4799,"name":"East C-1 DB","description":"Water Level Bubbler","in_service":1,"interval_data":"0.30","interval_time":43200}},{"type":"Feature","geometry":{"type":"Point","coordinates":[-115.324222,36.119889]},"properties":{"id":286,"numid":4318,"stationid":4319,"name":"Beltway Channel at Town Center","description":"Water Level Float","in_service":1,"interval_data":"-0.21","interval_time":43200}},{"type":"Feature","geometry":{"type":"Point","coordinates":[-114.114444,36.8175]},"properties":{"id":83,"numid":2673,"stationid":2674,"name":"Pulsipher Wash DB","description":"Water Level Float","in_service":1,"interval_data":"-0.65","interval_time":43200}},{"type":"Feature","geometry":{"type":"Point","coordinates":[-115.296778,36.107028]},"properties":{"id":291,"numid":4338,"stationid":4339,"name":"Beltway Channel at Peace Way","description":"Water Level Float","in_service":1,"interval_data":"0.19","interval_time":43200}},{"type":"Feature","geometry":{"type":"Point","coordinates":[-115.118094,36.055017]},"properties":{"id":427,"numid":4633,"stationid":4634,"name":"Duck Creek at Eastern","description":"Water Level Float","in_service":1,"interval_data":"0.10","interval_time":43200}},{"type":"Feature","geometry":{"type":"Point","coordinates":[-115.208583,36.102583]},"properties":{"id":306,"numid":4368,"stationid":4369,"name":"Lower Flamingo DB","description":"Water Level Bubbler","in_service":1,"interval_data":"0.34","interval_time":43200}},{"type":"Feature","geometry":{"type":"Point","coordinates":[-115.328778,36.079917]},"properties":{"id":362,"numid":4408,"stationid":4409,"name":"F-2 Debris Basin","description":"Water Level Bubbler","in_service":1,"interval_data":"-0.01","interval_time":43200}},{"type":"Feature","geometry":{"type":"Point","coordinates":[-115.234144,36.102719]},"properties":{"id":304,"numid":4363,"stationid":4364,"name":"Flamingo Wash at Torrey Pines Dr.","description":"Water Level Float","in_service":1,"interval_data":"-0.10","interval_time":43200}},{"type":"Feature","geometry":{"type":"Point","coordinates":[-115.159806,36.243139]},"properties":{"id":189,"numid":4058,"stationid":4059,"name":"Gowan Outfall Channel","description":"Water Level Bubbler","in_service":1,"interval_data":"0.22","interval_time":43200}},{"type":"Feature","geometry":{"type":"Point","coordinates":[-114.073056,36.799722]},"properties":{"id":80,"numid":2598,"stationid":2599,"name":"Town Wash Channel","description":"Water Level Float","in_service":1,"interval_data":"-0.50","interval_time":43200}},{"type":"Feature","geometry":{"type":"Point","coordinates":[-114.093611,36.826111]},"properties":{"id":85,"numid":2683,"stationid":2684,"name":"Abbott Wash DB","description":"Water Level Float","in_service":1,"interval_data":"-0.51","interval_time":43200}},{"type":"Feature","geometry":{"type":"Point","coordinates":[-115.682556,36.571139]},"properties":{"id":146,"numid":3618,"stationid":3619,"name":"Indian Springs DB","description":"Water Level Float","in_service":1,"interval_data":"-0.50","interval_time":43200}},{"type":"Feature","geometry":{"type":"Point","coordinates":[-115.252225,36.216942]},"properties":{"id":259,"numid":4258,"stationid":4259,"name":"Gowan South DB","description":"Water Level Bubbler","in_service":1,"interval_data":"2.47","interval_time":43200}},{"type":"Feature","geometry":{"type":"Point","coordinates":[-115.083069,36.052353]},"properties":{"id":464,"numid":4738,"stationid":4739,"name":"UPRR Channel","description":"Water Level Float","in_service":1,"interval_data":"0.11","interval_time":43200}},{"type":"Feature","geometry":{"type":"Point","coordinates":[-115.053722,36.142111]},"properties":{"id":199,"numid":4083,"stationid":4084,"name":"Las Vegas Wash above Flamingo Wash confluence","description":"Water Level Bubbler","in_service":1,"interval_data":"7.66","interval_time":43200}},{"type":"Feature","geometry":{"type":"Point","coordinates":[-115.087944,36.252639]},"properties":{"id":214,"numid":4118,"stationid":4119,"name":"Vandenberg DB","description":"Water Level Float","in_service":1,"interval_data":"-0.40","interval_time":43200}},{"type":"Feature","geometry":{"type":"Point","coordinates":[-114.085611,36.8065]},"properties":{"id":87,"numid":2693,"stationid":2694,"name":"Abbott Wash Channel","description":"Water Level Float","in_service":1,"interval_data":"0.02","interval_time":43200}},{"type":"Feature","geometry":{"type":"Point","coordinates":[-115.117,35.925]},"properties":{"id":451,"numid":4708,"stationid":4709,"name":"Headworks DB","description":"Water Level Bubbler","in_service":1,"interval_data":"-4.81","interval_time":43200}},{"type":"Feature","geometry":{"type":"Point","coordinates":[-115.11914,36.2583]},"properties":{"id":404,"numid":4533,"stationid":4534,"name":"Upper Las Vegas Wash 1","description":"Water Level Float","in_service":1,"interval_data":"0.00","interval_time":43200}},{"type":"Feature","geometry":{"type":"Point","coordinates":[-115.003639,36.02825]},"properties":{"id":415,"numid":4563,"stationid":4564,"name":"Pittman Railroad Channel","description":"Water Level Float","in_service":1,"interval_data":"-0.01","interval_time":43200}},{"type":"Feature","geometry":{"type":"Point","coordinates":[-115.02525,36.091667]},"properties":{"id":445,"numid":4693,"stationid":4694,"name":"Duck Creek at Broadbent","description":"Water Level Float","in_service":1,"interval_data":"-0.41","interval_time":43200}},{"type":"Feature","geometry":{"type":"Point","coordinates":[-115.309447,36.232267]},"properties":{"id":263,"numid":4268,"stationid":4269,"name":"Lone Mountain DB","description":"Water Level Float","in_service":1,"interval_data":"0.01","interval_time":43200}},{"type":"Feature","geometry":{"type":"Point","coordinates":[-115.338333,36.300389]},"properties":{"id":179,"numid":4028,"stationid":4029,"name":"Kyle Canyon DB","description":"Water Level Bubbler","in_service":1,"interval_data":"0.02","interval_time":43200}},{"type":"Feature","geometry":{"type":"Point","coordinates":[-115.074286,36.228717]},"properties":{"id":212,"numid":4113,"stationid":4114,"name":"Sloan Channel at Las Vegas Blvd","in_service":1,"interval_data":"0.06","interval_time":43200}},{"type":"Feature","geometry":{"type":"Point","coordinates":[-114.964078,36.083272]},"properties":{"id":413,"numid":4553,"stationid":4554,"name":"Lower C-1 Channel (USGS)","description":"C-1 Channel ABV Mouth 09419754","in_service":1,"interval_data":"0.01","interval_time":43200}},{"type":"Feature","geometry":{"type":"Point","coordinates":[-115.25325,36.225306]},"properties":{"id":257,"numid":4253,"stationid":4254,"name":"Lower Gowan North DB","description":"Water Level Float","in_service":1,"interval_data":"2.99","interval_time":43200}},{"type":"Feature","geometry":{"type":"Point","coordinates":[-115.315353,36.009675]},"properties":{"id":429,"numid":4638,"stationid":4639,"name":"Upper Duck Creek DB","description":"Water Level Bubbler","in_service":1,"interval_data":"0.00","interval_time":43200}},{"type":"Feature","geometry":{"type":"Point","coordinates":[-115.275333,36.232722]},"properties":{"id":269,"numid":4278,"stationid":4279,"name":"Gowan North Channel","description":"Water Level Float","in_service":1,"interval_data":"0.23","interval_time":43200}},{"type":"Feature","geometry":{"type":"Point","coordinates":[-115.146992,36.113647]},"properties":{"id":389,"numid":4483,"stationid":4484,"name":"Tropicana Wash at University Center Drive","description":"Water Level Float","in_service":1,"interval_data":"0.40","interval_time":43200}},{"type":"Feature","geometry":{"type":"Point","coordinates":[-115.340028,36.2695]},"properties":{"id":396,"numid":4513,"stationid":4514,"name":"CAM-10 DB","description":"Water Level Bubbler","in_service":1,"interval_data":"0.00","interval_time":43200}},{"type":"Feature","geometry":{"type":"Point","coordinates":[-114.860278,35.980556]},"properties":{"id":502,"numid":4843,"stationid":4844,"name":"Bootleg Canyon DB","description":"Water Level Float","in_service":1,"interval_data":"-0.52","interval_time":43200}},{"type":"Feature","geometry":{"type":"Point","coordinates":[-114.985833,36.087083]},"properties":{"id":408,"numid":4542,"stationid":4544,"name":"Las Vegas Wash at Pabco Rd (Bubbler)","description":"Water Level Float","in_service":1,"interval_data":"2.32","interval_time":43200}},{"type":"Feature","geometry":{"type":"Point","coordinates":[-114.632628,35.155425]},"properties":{"id":556,"numid":5273,"stationid":5274,"name":"Hiko Springs DB","description":"Water Level Bubbler","in_service":1,"interval_data":"-0.02","interval_time":43200}},{"type":"Feature","geometry":{"type":"Point","coordinates":[-115.237778,36.0075]},"properties":{"id":435,"numid":4648,"stationid":4649,"name":"Duck Creek Railroad DB","description":"Water Level Bubbler","in_service":1,"interval_data":"1.62","interval_time":43200}},{"type":"Feature","geometry":{"type":"Point","coordinates":[-115.261111,36.268056]},"properties":{"id":398,"numid":4518,"stationid":4519,"name":"Rancho DB","description":"Water Level Bubbler","in_service":1,"interval_data":"1.57","interval_time":43200}},{"type":"Feature","geometry":{"type":"Point","coordinates":[-115.092583,35.983861]},"properties":{"id":460,"numid":4728,"stationid":4729,"name":"McCullough Hills DB","description":"Water Level Bubbler","in_service":1,"interval_data":"0.12","interval_time":43200}},{"type":"Feature","geometry":{"type":"Point","coordinates":[-114.9948,35.987389]},"properties":{"id":559,"numid":5633,"stationid":5634,"name":"Black Mountain DB","description":"Water Level Bubbler","in_service":1,"interval_data":"-0.61","interval_time":43200}},{"type":"Feature","geometry":{"type":"Point","coordinates":[-114.955361,35.988139]},"properties":{"id":474,"numid":4763,"stationid":4764,"name":"Mission Hills DB","description":"Water Level Float","in_service":1,"interval_data":"-0.50","interval_time":43200}},{"type":"Feature","geometry":{"type":"Point","coordinates":[-115.353583,36.112722]},"properties":{"id":377,"numid":4443,"stationid":4444,"name":"R-4 DB","description":"Water Level Float","in_service":1,"interval_data":"-0.05","interval_time":43200}},{"type":"Feature","geometry":{"type":"Point","coordinates":[-115.305306,36.087139]},"properties":{"id":369,"numid":4423,"stationid":4424,"name":"F-1 Channel","description":"Water Level Float","in_service":1,"interval_data":"-0.80","interval_time":43200}},{"type":"Feature","geometry":{"type":"Point","coordinates":[-115.042833,36.143194]},"properties":{"id":232,"numid":4198,"stationid":4199,"name":"Sloan Channel below Sahara","description":"Water Level Float","in_service":1,"interval_data":"0.00","interval_time":43200}},{"type":"Feature","geometry":{"type":"Point","coordinates":[-115.354658,36.151586]},"properties":{"id":293,"numid":4342,"stationid":4344,"name":"Red Rock DB Outlet","description":"Water Level Bubbler","in_service":1,"interval_data":"0.04","interval_time":43200}},{"type":"Feature","geometry":{"type":"Point","coordinates":[-114.95875,36.021861]},"properties":{"id":483,"numid":4778,"stationid":4779,"name":"C-1 Channel near Boulder Hwy","description":"Water Level Float","in_service":1,"interval_data":"-0.50","interval_time":43200}},{"type":"Feature","geometry":{"type":"Point","coordinates":[-115.052,36.048694]},"properties":{"id":472,"numid":4758,"stationid":4759,"name":"Pittman Park DB","description":"Water Level Float","in_service":1,"interval_data":"1.26","interval_time":43200}},{"type":"Feature","geometry":{"type":"Point","coordinates":[-115.281389,36.035]},"properties":{"id":375,"numid":4438,"stationid":4439,"name":"Blue Diamond Channel","description":"Water Level Float","in_service":1,"interval_data":"-1.61","interval_time":43200}},{"type":"Feature","geometry":{"type":"Point","coordinates":[-115.199444,36.081444]},"properties":{"id":385,"numid":4473,"stationid":4474,"name":"Tropicana DB North Bay","description":"Water Level Bubbler","in_service":1,"interval_data":"3.49","interval_time":43200}},{"type":"Feature","geometry":{"type":"Point","coordinates":[-114.172,35.7]},"properties":{"id":936,"numid":7443,"stationid":7440,"name":"Archibald Wash (Mohave County)","in_service":1,"interval_data":"0.11","interval_time":43200}},{"type":"Feature","geometry":{"type":"Point","coordinates":[-115.097181,36.277114000000005]},"properties":{"id":1894,"numid":3005007,"stationid":4129,"name":"Vandenberg North DB  (Outlet)","description":"Water Level Bubbler (2x)","in_service":1,"interval_data":"0.00","interval_time":43200}},{"type":"Feature","geometry":{"type":"Point","coordinates":[-115.254028,36.065917]},"properties":{"id":373,"numid":4433,"stationid":4434,"name":"Beltway Channel at Buffalo","description":"Water Level Float","in_service":1,"interval_data":"-0.49","interval_time":43200}},{"type":"Feature","geometry":{"type":"Point","coordinates":[-115.267139,36.319083]},"properties":{"id":175,"numid":4018,"stationid":4019,"name":"Floyd Lamb South EEA","description":"Water Level Bubbler","in_service":1,"interval_data":"-5.08","interval_time":43200}},{"type":"Feature","geometry":{"type":"Point","coordinates":[-115.331667,36.1205]},"properties":{"id":379,"numid":4448,"stationid":4449,"name":"R-4 Channel","description":"Water Level Float","in_service":1,"interval_data":"-0.79","interval_time":43200}},{"type":"Feature","geometry":{"type":"Point","coordinates":[-115.185028,36.286722]},"properties":{"id":406,"numid":4538,"stationid":4539,"name":"Beltway Channel at Aliante","description":"Water Level Float","in_service":1,"interval_data":"-0.11","interval_time":43200}},{"type":"Feature","geometry":{"type":"Point","coordinates":[-114.631389,36.631194]},"properties":{"id":114,"numid":3183,"stationid":3184,"name":"California Wash 2","description":"Water Level Float","in_service":1,"interval_data":"0.00","interval_time":43200}},{"type":"Feature","geometry":{"type":"Point","coordinates":[-115.127778,35.943056]},"properties":{"id":466,"numid":4743,"stationid":4744,"name":"Headworks Channel","description":"Water Level Float","in_service":1,"interval_data":"-0.82","interval_time":43200}},{"type":"Feature","geometry":{"type":"Point","coordinates":[-115.278417,36.127833]},"properties":{"id":302,"numid":4358,"stationid":4359,"name":"The Lakes DB","description":"Water Level Float","in_service":1,"interval_data":"-6.43","interval_time":43200}},{"type":"Feature","geometry":{"type":"Point","coordinates":[-115.098611,36.195833]},"properties":{"id":195,"numid":4073,"stationid":4074,"name":"Las Vegas Wash at Lake Mead","description":"Water Level Bubbler","in_service":1,"interval_data":"0.75","interval_time":43200}},{"type":"Feature","geometry":{"type":"Point","coordinates":[-115.16,36.255]},"properties":{"id":803,"numid":4063,"stationid":4064,"name":"Lower Las Vegas Wash DB","description":"Water Level Bubbler","in_service":1,"interval_data":"1.68","interval_time":43200}},{"type":"Feature","geometry":{"type":"Point","coordinates":[-115.299722,36.044722]},"properties":{"id":367,"numid":4418,"stationid":4419,"name":"F-4 Debris Basin","description":"Water Level Float","in_service":1,"interval_data":"-2.02","interval_time":43200}},{"type":"Feature","geometry":{"type":"Point","coordinates":[-115.172444,36.2572]},"properties":{"id":197,"numid":4078,"stationid":4079,"name":"Western Tributary of Las Vegas Wash","description":"Water Level Float","in_service":1,"interval_data":"-0.01","interval_time":43200}},{"type":"Feature","geometry":{"type":"Point","coordinates":[-115.297444,36.281028]},"properties":{"id":394,"numid":4508,"stationid":4509,"name":"Fort Apache DB","description":"Water Level Bubbler / DA  H-350XL","in_service":1,"interval_data":"-0.01","interval_time":43200}},{"type":"Feature","geometry":{"type":"Point","coordinates":[-115.111364,36.108356]},"properties":{"id":310,"numid":4378,"stationid":4379,"name":"Van Buskirk DB","description":"Water Level Float","in_service":1,"interval_data":"-0.04","interval_time":43200}},{"type":"Feature","geometry":{"type":"Point","coordinates":[-115.042889,36.211167]},"properties":{"id":223,"numid":4153,"stationid":4154,"name":"Confluence DB","description":"Water Level Float","in_service":1,"interval_data":"0.00","interval_time":43200}},{"type":"Feature","geometry":{"type":"Point","coordinates":[-115.24225,36.12975]},"properties":{"id":283,"numid":4308,"stationid":4309,"name":"Desert Inn DB","description":"Water Level Float","in_service":1,"interval_data":"1.72","interval_time":43200}},{"type":"Feature","geometry":{"type":"Point","coordinates":[-115.304028,36.105639]},"properties":{"id":371,"numid":4428,"stationid":4429,"name":"Naples Channel","description":"Water Level Float","in_service":1,"interval_data":"-0.01","interval_time":43200}},{"type":"Feature","geometry":{"type":"Point","coordinates":[-115.199444,36.080444]},"properties":{"id":750,"numid":4472,"stationid":4474,"name":"Tropicana DB South Bay","description":"Water Level Bubbler","in_service":1,"interval_data":"0.32","interval_time":43200}},{"type":"Feature","geometry":{"type":"Point","coordinates":[-114.544,35.098]},"properties":{"id":881,"numid":1623,"stationid":1620,"name":"Montana Wash (Mohave County)","in_service":1,"interval_data":"0.10","interval_time":43200}},{"type":"Feature","geometry":{"type":"Point","coordinates":[-115.109569,36.034639]},"properties":{"id":462,"numid":4733,"stationid":4734,"name":"Pittman Wash at Wigwam","description":"Water Level Float","in_service":1,"interval_data":"0.01","interval_time":43200}},{"type":"Feature","geometry":{"type":"Point","coordinates":[-115.249167,36.276389]},"properties":{"id":971,"numid":4558,"stationid":4559,"name":"Beltway Channel at Tenaya","description":"Water Level Float","in_service":1,"interval_data":"-0.53","interval_time":43200}},{"type":"Feature","geometry":{"type":"Point","coordinates":[-114.497,35.171]},"properties":{"id":896,"numid":1528,"stationid":1525,"name":"Punto de Vista (Mohave County)","in_service":1,"interval_data":"0.16","interval_time":43200}},{"type":"Feature","geometry":{"type":"Point","coordinates":[-115.281417,36.187]},"properties":{"id":244,"numid":4218,"stationid":4219,"name":"Angel Park DB","description":"Water Level Bubbler","in_service":1,"interval_data":"0.27","interval_time":43200}},{"type":"Feature","geometry":{"type":"Point","coordinates":[-114.93975,36.021389]},"properties":{"id":470,"numid":4753,"stationid":4754,"name":"Equestrian DB","description":"Water Level Float","in_service":1,"interval_data":"1.50","interval_time":43200}},{"type":"Feature","geometry":{"type":"Point","coordinates":[-113.968,36.8653]},"properties":{"id":855,"numid":1618,"stationid":1615,"name":"Big Bend Wash (Mohave County) Water Level","in_service":1,"interval_data":"0.17","interval_time":43200}},{"type":"Feature","geometry":{"type":"Point","coordinates":[-115.316806,36.062222]},"properties":{"id":1036,"numid":4463,"stationid":4464,"name":"Hualapai at Maule (F-3) DB","description":"Water Level Bubbler","in_service":1,"interval_data":"-0.01","interval_time":43200}},{"type":"Feature","geometry":{"type":"Point","coordinates":[-115.2425,36.173889]},"properties":{"id":277,"numid":4298,"stationid":4299,"name":"Rainbow Curve DB","description":"Water Level Bubbler","in_service":1,"interval_data":"0.24","interval_time":43200}},{"type":"Feature","geometry":{"type":"Point","coordinates":[-115.155222,36.021111]},"properties":{"id":421,"numid":4618,"stationid":4619,"name":"Lower Duck Creek DB","description":"Water Level Bubbler","in_service":1,"interval_data":"-0.05","interval_time":43200}},{"type":"Feature","geometry":{"type":"Point","coordinates":[-115.053944,36.141583]},"properties":{"id":1019,"numid":4395,"stationid":4395,"name":"Flamingo Wash East of Nellis","description":"Water Level Bubbler","in_service":1,"interval_data":"6.49","interval_time":43200}},{"type":"Feature","geometry":{"type":"Point","coordinates":[-115.316694,36.031861]},"properties":{"id":364,"numid":4413,"stationid":4414,"name":"Blue Diamond DB","description":"Water Level Bubbler","in_service":1,"interval_data":"5.23","interval_time":43200}},{"type":"Feature","geometry":{"type":"Point","coordinates":[-115.119014,36.12295]},"properties":{"id":308,"numid":4373,"stationid":4374,"name":"Flamingo Wash at Eastern Ave.","description":"Water Level Float","in_service":1,"interval_data":"0.30","interval_time":43200}},{"type":"Feature","geometry":{"type":"Point","coordinates":[-115.024333,36.014919]},"properties":{"id":1271,"numid":4751,"stationid":4752,"name":"Horizon Ridge DB","description":"Water Level Bubbler","in_service":1,"interval_data":"0.00","interval_time":43200}},{"type":"Feature","geometry":{"type":"Point","coordinates":[-115.019167,36.1525]},"properties":{"id":1026,"numid":4178,"stationid":4179,"name":"Orchard DB","description":"Water Level Bubbler","in_service":1,"interval_data":"0.01","interval_time":43200}},{"type":"Feature","geometry":{"type":"Point","coordinates":[-114.005833,36.808056]},"properties":{"id":569,"numid":7753,"stationid":7750,"name":"Virgin River at Scenic, AZ (Mohave County)","in_service":1,"interval_data":"1.83","interval_time":43200}},{"type":"Feature","geometry":{"type":"Point","coordinates":[-115.234833,36.151092]},"properties":{"id":255,"numid":4248,"stationid":4249,"name":"Oakey DB","description":"Water Level Float","in_service":1,"interval_data":"-2.58","interval_time":43200}},{"type":"Feature","geometry":{"type":"Point","coordinates":[-114.62345,36.755358]},"properties":{"id":142,"numid":3383,"stationid":3384,"name":"Meadow Valley Wash","description":"Water Level Float","in_service":1,"interval_data":"-0.01","interval_time":43200}},{"type":"Feature","geometry":{"type":"Point","coordinates":[-115.180694,36.198111]},"properties":{"id":252,"numid":4238,"stationid":4239,"name":"Carey/Lake Mead DB","description":"Water Level Bubbler","in_service":1,"interval_data":"2.07","interval_time":43200}},{"type":"Feature","geometry":{"type":"Point","coordinates":[-115.169444,36.009722]},"properties":{"id":425,"numid":4628,"stationid":4629,"name":"Duck Creek at JoRae","description":"Water Level Float","in_service":1,"interval_data":"-0.71","interval_time":43200}},{"type":"Feature","geometry":{"type":"Point","coordinates":[-115.097181,36.278114]},"properties":{"id":1895,"numid":3005017,"stationid":4129,"name":"Vandenberg North DB  (Basin)","description":"Water Level Bubbler (2x)","in_service":1,"interval_data":"0.00","interval_time":43200}},{"type":"Feature","geometry":{"type":"Point","coordinates":[-115.065856,36.142378]},"properties":{"id":1100,"numid":4396,"stationid":4394,"name":"Flamingo Wash at Nellis Blvd (USGS) Bubbler","in_service":1,"interval_data":"0.74","interval_time":43200}},{"type":"Feature","geometry":{"type":"Point","coordinates":[-115.138917,36.045222]},"properties":{"id":423,"numid":4623,"stationid":4624,"name":"Duck Creek at Paradise","description":"Water Level Float","in_service":1,"interval_data":"-0.05","interval_time":43200}},{"type":"Feature","geometry":{"type":"Point","coordinates":[-114.580278,34.87]},"properties":{"id":859,"numid":1658,"stationid":1655,"name":"Quail Run (Mohave County)","in_service":1,"interval_data":"M","interval_time":43200}},{"type":"Feature","geometry":{"type":"Point","coordinates":[-114.409,35.608]},"properties":{"id":935,"numid":1633,"stationid":1630,"name":"Detrital Wash @ SR93 (Mohave County)","in_service":1,"interval_data":"0.13","interval_time":43200}},{"type":"Feature","geometry":{"type":"Point","coordinates":[-113.992,37.2939]},"properties":{"id":862,"numid":1648,"stationid":1645,"name":"Motoqua (Mohave County)","description":"Located in Utah","in_service":1,"interval_data":"0.14","interval_time":43200}},{"type":"Feature","geometry":{"type":"Point","coordinates":[-115.156306,35.967272]},"properties":{"id":1600,"numid":3016907,"stationid":4722,"name":"Pittman North DB","description":"Bubbler","in_service":1,"interval_data":"0.00","interval_time":43200}},{"type":"Feature","geometry":{"type":"Point","coordinates":[-115.061694,36.155028]},"properties":{"id":1020,"numid":4003,"stationid":4004,"name":"Las Vegas Wash at Nellis","description":"Water Level Bubbler","in_service":1,"interval_data":"2.65","interval_time":43200}},{"type":"Feature","geometry":{"type":"Point","coordinates":[-115.162594,36.155764]},"properties":{"id":273,"numid":4288,"stationid":4289,"name":"Freeway Channel near Charleston","description":"Bubbler","in_service":1,"interval_data":"0.00","interval_time":43200}},{"type":"Feature","geometry":{"type":"Point","coordinates":[-115.195528,36.302639]},"properties":{"id":1720,"numid":3007207,"stationid":4501,"name":"Park Highlands West DB","description":"Water Level Bubbler","in_service":1,"interval_data":"0.00","interval_time":43200}},{"type":"Feature","geometry":{"type":"Point","coordinates":[-113.983889,36.973889]},"properties":{"id":1999,"numid":7479,"stationid":7478,"name":"Mormon Well  (Mohave County)","in_service":1,"interval_data":"0.12","interval_time":43200}},{"type":"Feature","geometry":{"type":"Point","coordinates":[-114.028889,37.1125]},"properties":{"id":2001,"numid":1510,"stationid":1510,"name":"Catclaw Canyon  (Mohave County)","in_service":1,"interval_data":"0.00","interval_time":43200}},{"type":"Feature","geometry":{"type":"Point","coordinates":[-114.521389,35.1325]},"properties":{"id":2010,"numid":7679,"stationid":7678,"name":"Secret Pass Canyon Wash (Mohave County)","in_service":1,"interval_data":"0.12","interval_time":43200}},{"type":"Feature","geometry":{"type":"Point","coordinates":[-115.128917,36.119583]},"properties":{"id":417,"numid":4573,"stationid":4574,"name":"Flamingo Wash at Spencer","description":"Water Level Float","in_service":1,"interval_data":"0.35","interval_time":43200}},{"type":"Feature","geometry":{"type":"Point","coordinates":[-113.933333,36.901944]},"properties":{"id":2002,"numid":7601,"stationid":7601,"name":"Beaver Dam  (Mohave County)","in_service":1,"interval_data":"1.36","interval_time":43200}},{"type":"Feature","geometry":{"type":"Point","coordinates":[-114.468333,35.702222]},"properties":{"id":2005,"numid":7498,"stationid":7495,"name":"Detrital Wash @ CR145 (Mohave County)","in_service":1,"interval_data":"0.06","interval_time":43200}},{"type":"Feature","geometry":{"type":"Point","coordinates":[-114.443528,36.556944]},"properties":{"id":2033,"numid":3012307,"stationid":3299,"name":"Muddy River at Cooper St.","description":"Water Level Radar","in_service":1,"interval_data":"0.29","interval_time":43200}},{"type":"Feature","geometry":{"type":"Point","coordinates":[-115.373131,36.173353]},"properties":{"id":2142,"numid":3047807,"stationid":4203,"name":"Summerlin DB (DB 5)","description":"50388 with Amazon Water Level Bubbler","in_service":1,"interval_data":"0.02","interval_time":43200}},{"type":"Feature","geometry":{"type":"Point","coordinates":[-115.0246,36.290053]},"properties":{"id":2049,"numid":3005707,"stationid":4139,"name":"Speedway #2 DB","description":"Water Level Bubbler","in_service":1,"interval_data":"0.00","interval_time":43200}},{"type":"Feature","geometry":{"type":"Point","coordinates":[-115.103194,36.133167]},"properties":{"id":358,"numid":4398,"stationid":4399,"name":"Flamingo Wash at Mojave","description":"Water Level Float","in_service":1,"interval_data":"0.39","interval_time":43200}},{"type":"Feature","geometry":{"type":"Point","coordinates":[-114.571306,36.663417]},"properties":{"id":2041,"numid":3012407,"stationid":3269,"name":"Muddy River at Glendale Bridge","description":"Water Level Radar","in_service":1,"interval_data":"1.99","interval_time":43200}},{"type":"Feature","geometry":{"type":"Point","coordinates":[-115.358972,36.193917]},"properties":{"id":2164,"numid":3043207,"stationid":4201,"name":"Grand Park DB","description":"50388 with Amazon Water Level Bubbler","in_service":1,"interval_data":"0.00","interval_time":43200}},{"type":"Feature","geometry":{"type":"Point","coordinates":[-115.199756,36.012342]},"properties":{"id":2181,"numid":3020407,"stationid":4651,"name":"Silverado Ranch DB","description":"50388 with Amazon Water Level Bubbler","in_service":1,"interval_data":"0.01","interval_time":43200}},{"type":"Feature","geometry":{"type":"Point","coordinates":[-114.958908,36.042769]},"properties":{"id":485,"numid":4783,"stationid":4784,"name":"C-1 Channel at Warm Springs (USGS)","in_service":1,"interval_data":"0.02","interval_time":43200}},{"type":"Feature","geometry":{"type":"Point","coordinates":[-115.07775,35.939417]},"properties":{"id":458,"numid":4723,"stationid":4724,"name":"Anthem DB","description":"Water Level Bubbler","in_service":1,"interval_data":"-0.14","interval_time":43200}},{"type":"Feature","geometry":{"type":"Point","coordinates":[-114.695464,36.711122]},"properties":{"id":130,"numid":3263,"stationid":3264,"name":"Muddy River Moapa (USGS)","description":"Upgraded to ALERT 2 10/19/2020. Downgraded to ALERT 1 10/15/2021.","in_service":1,"interval_data":"0.93","interval_time":43200}},{"type":"Feature","geometry":{"type":"Point","coordinates":[-115.075361,36.083722]},"properties":{"id":443,"numid":4683,"stationid":4684,"name":"Duck Creek above Mountain Vista","description":"Water Level Bubbler","in_service":1,"interval_data":"1.64","interval_time":43200}},{"type":"Feature","geometry":{"type":"Point","coordinates":[-114.1225,36.766111]},"properties":{"id":93,"numid":2783,"stationid":2784,"name":"Windmill Wash DB","description":"Water Level Bubbler","in_service":1,"interval_data":"-0.80","interval_time":43200}},{"type":"Feature","geometry":{"type":"Point","coordinates":[-115.331556,36.319139]},"properties":{"id":1537,"numid":3005607,"stationid":4584,"name":"Skye Canyon 2 DB","description":"Water Level Bubbler","in_service":1,"interval_data":"-8.00","interval_time":43200}},{"type":"Feature","geometry":{"type":"Point","coordinates":[-115.112333,36.242583]},"properties":{"id":193,"numid":4068,"stationid":4069,"name":"Las Vegas Wash at Craig Rd","description":"Water Level Float","in_service":1,"interval_data":"-0.51","interval_time":43200}},{"type":"Feature","geometry":{"type":"Point","coordinates":[-115.106861,36.060667]},"properties":{"id":441,"numid":4673,"stationid":4674,"name":"Duck Creek near Tomiyasu","description":"Water Level Float. Upgraded to A2 3/28/2023.","in_service":1,"interval_data":"-0.20","interval_time":43200}},{"type":"Feature","geometry":{"type":"Point","coordinates":[-114.86575,35.968917]},"properties":{"id":495,"numid":4823,"stationid":4824,"name":"Veteran\u0027s DB","description":"Water Level Float","in_service":1,"interval_data":"0.63","interval_time":43200}},{"type":"Feature","geometry":{"type":"Point","coordinates":[-115.257639,36.321556]},"properties":{"id":169,"numid":4008,"stationid":4009,"name":"Floyd Lamb North EEA","description":"Water Level Bubbler","in_service":1,"interval_data":"-0.02","interval_time":43200}},{"type":"Feature","geometry":{"type":"Point","coordinates":[-115.035769,36.131861]},"properties":{"id":991,"numid":4087,"stationid":4089,"name":"Las Vegas Wash below Vegas Valley Dr. (USGS)  (Lower Orifice)","description":"This gauge was relocated downstream of previous site on 6/4/2018, and again on 2/27/2019.","in_service":1,"interval_data":"5.11","interval_time":43200}},{"type":"Feature","geometry":{"type":"Point","coordinates":[-115.046389,36.075833]},"properties":{"id":468,"numid":4748,"stationid":4749,"name":"Pittman Wash at Stephanie","description":"Water Level Bubbler","in_service":1,"interval_data":"0.65","interval_time":43200}},{"type":"Feature","geometry":{"type":"Point","coordinates":[-115.112778,36.219778]},"properties":{"id":400,"numid":4523,"stationid":4524,"name":"Cheyenne PB","description":"Water Level Bubbler","in_service":1,"interval_data":"0.22","interval_time":43200}},{"type":"Feature","geometry":{"type":"Point","coordinates":[-114.466389,36.613333]},"properties":{"id":2505,"numid":3014307,"stationid":3289,"name":"Fairgrounds DB","description":"50388 with Amazon Bubbler","in_service":1,"interval_data":"-0.01","interval_time":43200}},{"type":"Feature","geometry":{"type":"Point","coordinates":[-115.087056,36.068889]},"properties":{"id":1033,"numid":4658,"stationid":4659,"name":"Duck Creek above Sunset","description":"Water Level Bubbler","in_service":1,"interval_data":"0.45","interval_time":43200}},{"type":"Feature","geometry":{"type":"Point","coordinates":[-115.105417,36.210306]},"properties":{"id":402,"numid":4528,"stationid":4529,"name":"Las Vegas Wash at LV Blvd","description":"Water Level Bubbler","in_service":1,"interval_data":"0.95","interval_time":43200}},{"type":"Feature","geometry":{"type":"Point","coordinates":[-114.936667,36.055556]},"properties":{"id":411,"numid":4548,"stationid":4549,"name":"NE C-1 DB","description":"Water Level Bubbler","in_service":1,"interval_data":"0.00","interval_time":43200}},{"type":"Feature","geometry":{"type":"Point","coordinates":[-115.319389,36.247583]},"properties":{"id":1111,"numid":4263,"stationid":4264,"name":"Beltway at Lone Mtn DB","description":"Water Level Bubbler","in_service":1,"interval_data":"2.29","interval_time":43200}},{"type":"Feature","geometry":{"type":"Point","coordinates":[-114.943028,36.1]},"properties":{"id":205,"numid":4098,"stationid":4099,"name":"Rainbow Garden Weir","description":"Water Level Float","in_service":1,"interval_data":"3.08","interval_time":43200}},{"type":"Feature","geometry":{"type":"Point","coordinates":[-115.021083,36.044]},"properties":{"id":476,"numid":4768,"stationid":4769,"name":"Pioneer DB","description":"Water Level Bubbler","in_service":1,"interval_data":"0.87","interval_time":43200}}]}